{
  "meta": {
    "title": "The Long Way Round",
    "subtitle": "A live map of where I have been and where I am headed next — with running trip stats and seasonal weather to help plan the road ahead.",
    "eyebrow": "Round-the-world · 2025 → 2026"
  },
  "stops": [
    {
      "name": "Bangkok",
      "country": "Thailand",
      "cc": "TH",
      "lat": 13.7563,
      "lon": 100.5018,
      "arrive": "2025-06-20",
      "depart": "2025-06-23"
    },
    {
      "name": "Koh Samui",
      "country": "Thailand",
      "cc": "TH",
      "lat": 9.512,
      "lon": 100.0136,
      "arrive": "2025-06-23",
      "depart": "2025-06-27"
    },
    {
      "name": "Chiang Mai",
      "country": "Thailand",
      "cc": "TH",
      "lat": 18.7883,
      "lon": 98.9853,
      "arrive": "2025-06-27",
      "depart": "2025-07-08"
    },
    {
      "name": "Hanoi",
      "country": "Vietnam",
      "cc": "VN",
      "lat": 21.0278,
      "lon": 105.8342,
      "arrive": "2025-07-08",
      "depart": "2025-07-11"
    },
    {
      "name": "Ninh Binh",
      "country": "Vietnam",
      "cc": "VN",
      "lat": 20.2506,
      "lon": 105.9744,
      "arrive": "2025-07-11",
      "depart": "2025-07-14"
    },
    {
      "name": "Hanoi",
      "country": "Vietnam",
      "cc": "VN",
      "lat": 21.0278,
      "lon": 105.8342,
      "arrive": "2025-07-14",
      "depart": "2025-07-17"
    },
    {
      "name": "Ha Giang",
      "country": "Vietnam",
      "cc": "VN",
      "lat": 22.8233,
      "lon": 104.9836,
      "arrive": "2025-07-17",
      "depart": "2025-07-23",
      "note": "Ha Giang loop"
    },
    {
      "name": "Sa Pa",
      "country": "Vietnam",
      "cc": "VN",
      "lat": 22.3364,
      "lon": 103.8438,
      "arrive": "2025-07-23",
      "depart": "2025-07-26",
      "note": "Crossed border at Lao Cai into China"
    },
    {
      "name": "Kunming",
      "country": "China",
      "cc": "CN",
      "lat": 25.0389,
      "lon": 102.7183,
      "arrive": "2025-07-26",
      "depart": "2025-07-28"
    },
    {
      "name": "Dali",
      "country": "China",
      "cc": "CN",
      "lat": 25.6065,
      "lon": 100.2679,
      "arrive": "2025-07-28",
      "depart": "2025-07-30"
    },
    {
      "name": "Lijiang",
      "country": "China",
      "cc": "CN",
      "lat": 26.8721,
      "lon": 100.2299,
      "arrive": "2025-07-31",
      "depart": "2025-08-03"
    },
    {
      "name": "Tiger Leaping Gorge",
      "country": "China",
      "cc": "CN",
      "lat": 27.177,
      "lon": 100.081,
      "arrive": "2025-08-03",
      "depart": "2025-08-05",
      "note": "Hiked the trail, overnight at Tea Horse Guesthouse"
    },
    {
      "name": "Shangri-La",
      "country": "China",
      "cc": "CN",
      "lat": 27.825,
      "lon": 99.7065,
      "arrive": "2025-08-05",
      "depart": "2025-08-08"
    },
    {
      "name": "Chengdu",
      "country": "China",
      "cc": "CN",
      "lat": 30.5728,
      "lon": 104.0668,
      "arrive": "2025-08-08",
      "depart": "2025-08-13"
    },
    {
      "name": "Chongqing",
      "country": "China",
      "cc": "CN",
      "lat": 29.4316,
      "lon": 106.9123,
      "arrive": "2025-08-13",
      "depart": "2025-08-17"
    },
    {
      "name": "Zhangjiajie",
      "country": "China",
      "cc": "CN",
      "lat": 29.117,
      "lon": 110.479,
      "arrive": "2025-08-17",
      "depart": "2025-08-19"
    },
    {
      "name": "Shenzhen",
      "country": "China",
      "cc": "CN",
      "lat": 22.5431,
      "lon": 114.0579,
      "arrive": "2025-08-19",
      "depart": "2025-08-22"
    },
    {
      "name": "Hong Kong",
      "country": "Hong Kong",
      "cc": "HK",
      "lat": 22.3193,
      "lon": 114.1694,
      "arrive": "2025-08-22",
      "depart": "2025-08-26"
    },
    {
      "name": "Taipei",
      "country": "Taiwan",
      "cc": "TW",
      "lat": 25.033,
      "lon": 121.5654,
      "arrive": "2025-08-26",
      "depart": "2025-08-30"
    },
    {
      "name": "Kyrgyzstan",
      "country": "Kyrgyzstan",
      "cc": "KG",
      "lat": 42.8746,
      "lon": 74.5698,
      "arrive": "2025-08-30",
      "depart": "2025-09-15",
      "note": "Bishkek & the mountains"
    },
    {
      "name": "Kazakhstan",
      "country": "Kazakhstan",
      "cc": "KZ",
      "lat": 43.222,
      "lon": 76.8512,
      "arrive": "2025-09-15",
      "depart": "2025-09-26",
      "note": "Almaty"
    },
    {
      "name": "Uzbekistan",
      "country": "Uzbekistan",
      "cc": "UZ",
      "lat": 39.6542,
      "lon": 66.9597,
      "arrive": "2025-09-26",
      "depart": "2025-10-01",
      "note": "Samarkand & Tashkent"
    },
    {
      "name": "Tajikistan",
      "country": "Tajikistan",
      "cc": "TJ",
      "lat": 40.2833,
      "lon": 69.6333,
      "arrive": "2025-10-01",
      "depart": "2025-10-02",
      "note": "Khujand"
    },
    {
      "name": "Uzbekistan",
      "country": "Uzbekistan",
      "cc": "UZ",
      "lat": 41.2995,
      "lon": 69.2401,
      "arrive": "2025-10-02",
      "depart": "2025-10-10",
      "note": "Tashkent"
    },
    {
      "name": "Urumqi",
      "country": "China",
      "cc": "CN",
      "lat": 43.8256,
      "lon": 87.6168,
      "arrive": "2025-10-10",
      "depart": "2025-10-12"
    },
    {
      "name": "Lanzhou",
      "country": "China",
      "cc": "CN",
      "lat": 36.0611,
      "lon": 103.8343,
      "arrive": "2025-10-12",
      "depart": "2025-10-15"
    },
    {
      "name": "Xi'an",
      "country": "China",
      "cc": "CN",
      "lat": 34.3416,
      "lon": 108.9398,
      "arrive": "2025-10-15",
      "depart": "2025-10-21"
    },
    {
      "name": "Shanghai",
      "country": "China",
      "cc": "CN",
      "lat": 31.2304,
      "lon": 121.4737,
      "arrive": "2025-10-21",
      "depart": "2025-10-28"
    },
    {
      "name": "Seoul",
      "country": "South Korea",
      "cc": "KR",
      "lat": 37.5665,
      "lon": 126.978,
      "arrive": "2025-10-28",
      "depart": "2025-11-04"
    },
    {
      "name": "Sokcho / Seoraksan",
      "country": "South Korea",
      "cc": "KR",
      "lat": 38.207,
      "lon": 128.5918,
      "arrive": "2025-11-04",
      "depart": "2025-11-06"
    },
    {
      "name": "Wonju",
      "country": "South Korea",
      "cc": "KR",
      "lat": 37.3422,
      "lon": 127.9202,
      "arrive": "2025-11-06",
      "depart": "2025-11-07",
      "note": "Overnight"
    },
    {
      "name": "Andong → Busan",
      "country": "South Korea",
      "cc": "KR",
      "lat": 35.1796,
      "lon": 129.0756,
      "arrive": "2025-11-07",
      "depart": "2025-11-20",
      "note": "Andong · Daegu · Gyeongju · Busan (Haeundae); ferry to Japan"
    },
    {
      "name": "Fukuoka",
      "country": "Japan",
      "cc": "JP",
      "lat": 33.5904,
      "lon": 130.4017,
      "arrive": "2025-11-20",
      "depart": "2025-11-27"
    },
    {
      "name": "Kagoshima",
      "country": "Japan",
      "cc": "JP",
      "lat": 31.5602,
      "lon": 130.5581,
      "arrive": "2025-11-28",
      "depart": "2025-12-02"
    },
    {
      "name": "Osaka",
      "country": "Japan",
      "cc": "JP",
      "lat": 34.6937,
      "lon": 135.5023,
      "arrive": "2025-12-02",
      "depart": "2025-12-06"
    },
    {
      "name": "Tokyo",
      "country": "Japan",
      "cc": "JP",
      "lat": 35.6762,
      "lon": 139.6503,
      "arrive": "2025-12-06",
      "depart": "2025-12-12"
    },
    {
      "name": "New York",
      "country": "USA",
      "cc": "US",
      "lat": 40.7128,
      "lon": -74.006,
      "arrive": "2025-12-12",
      "depart": "2026-01-08"
    },
    {
      "name": "Washington DC",
      "country": "USA",
      "cc": "US",
      "lat": 38.9072,
      "lon": -77.0369,
      "arrive": "2026-01-08",
      "depart": "2026-01-22"
    },
    {
      "name": "Atlanta",
      "country": "USA",
      "cc": "US",
      "lat": 33.749,
      "lon": -84.388,
      "arrive": "2026-01-22",
      "depart": "2026-01-24"
    },
    {
      "name": "Birmingham",
      "country": "USA",
      "cc": "US",
      "lat": 33.5186,
      "lon": -86.8104,
      "arrive": "2026-01-24",
      "depart": "2026-01-27"
    },
    {
      "name": "New Orleans",
      "country": "USA",
      "cc": "US",
      "lat": 29.9511,
      "lon": -90.0715,
      "arrive": "2026-01-27",
      "depart": "2026-02-02"
    },
    {
      "name": "Houston",
      "country": "USA",
      "cc": "US",
      "lat": 29.7604,
      "lon": -95.3698,
      "arrive": "2026-02-02",
      "depart": "2026-02-09"
    },
    {
      "name": "Mexico City",
      "country": "Mexico",
      "cc": "MX",
      "lat": 19.4326,
      "lon": -99.1332,
      "arrive": "2026-02-09",
      "depart": "2026-02-18"
    },
    {
      "name": "Oaxaca",
      "country": "Mexico",
      "cc": "MX",
      "lat": 17.0732,
      "lon": -96.7266,
      "arrive": "2026-02-18",
      "depart": "2026-02-22"
    },
    {
      "name": "San José del Pacífico",
      "country": "Mexico",
      "cc": "MX",
      "lat": 16.1667,
      "lon": -96.5167,
      "arrive": "2026-02-22",
      "depart": "2026-02-25"
    },
    {
      "name": "Mazunte",
      "country": "Mexico",
      "cc": "MX",
      "lat": 15.6667,
      "lon": -96.55,
      "arrive": "2026-02-25",
      "depart": "2026-03-02"
    },
    {
      "name": "San Cristóbal",
      "country": "Mexico",
      "cc": "MX",
      "lat": 16.737,
      "lon": -92.6376,
      "arrive": "2026-03-02",
      "depart": "2026-03-09",
      "note": "Chiapas — arrived via night bus"
    },
    {
      "name": "Antigua",
      "country": "Guatemala",
      "cc": "GT",
      "lat": 14.5586,
      "lon": -90.7295,
      "arrive": "2026-03-09",
      "depart": "2026-03-16",
      "note": "Hiked Acatenango Mar 13–14"
    },
    {
      "name": "Jaibalito",
      "country": "Guatemala",
      "cc": "GT",
      "lat": 14.7167,
      "lon": -91.1667,
      "arrive": "2026-03-16",
      "depart": "2026-03-18",
      "note": "Lake Atitlán"
    },
    {
      "name": "San José La Laguna",
      "country": "Guatemala",
      "cc": "GT",
      "lat": 14.7,
      "lon": -91.2333,
      "arrive": "2026-03-18",
      "depart": "2026-03-21"
    },
    {
      "name": "Guatemala City",
      "country": "Guatemala",
      "cc": "GT",
      "lat": 14.6349,
      "lon": -90.5069,
      "arrive": "2026-03-21",
      "depart": "2026-03-23",
      "note": "Fly to Colombia"
    },
    {
      "name": "Bogotá",
      "country": "Colombia",
      "cc": "CO",
      "lat": 4.711,
      "lon": -74.0721,
      "arrive": "2026-03-23",
      "depart": "2026-03-27"
    },
    {
      "name": "Lima",
      "country": "Peru",
      "cc": "PE",
      "lat": -12.0464,
      "lon": -77.0428,
      "arrive": "2026-03-27",
      "depart": "2026-03-29"
    },
    {
      "name": "Paracas",
      "country": "Peru",
      "cc": "PE",
      "lat": -13.84,
      "lon": -76.25,
      "arrive": "2026-03-29",
      "depart": "2026-03-31"
    },
    {
      "name": "Huacachina",
      "country": "Peru",
      "cc": "PE",
      "lat": -14.0875,
      "lon": -75.7626,
      "arrive": "2026-03-31",
      "depart": "2026-04-01",
      "note": "Desert oasis"
    },
    {
      "name": "Arequipa",
      "country": "Peru",
      "cc": "PE",
      "lat": -16.409,
      "lon": -71.5375,
      "arrive": "2026-04-01",
      "depart": "2026-04-06",
      "note": "Night bus to Cusco"
    },
    {
      "name": "Cusco",
      "country": "Peru",
      "cc": "PE",
      "lat": -13.532,
      "lon": -71.9675,
      "arrive": "2026-04-06",
      "depart": "2026-04-15"
    },
    {
      "name": "Salkantay Trek",
      "country": "Peru",
      "cc": "PE",
      "lat": -13.35,
      "lon": -72.55,
      "arrive": "2026-04-15",
      "depart": "2026-04-19",
      "note": "5-day trek to Machu Picchu"
    },
    {
      "name": "Cusco",
      "country": "Peru",
      "cc": "PE",
      "lat": -13.532,
      "lon": -71.9675,
      "arrive": "2026-04-19",
      "depart": "2026-04-22",
      "note": "Night bus to Puno"
    },
    {
      "name": "Puno",
      "country": "Peru",
      "cc": "PE",
      "lat": -15.8402,
      "lon": -70.0219,
      "arrive": "2026-04-23",
      "depart": "2026-04-24",
      "note": "Lake Titicaca"
    },
    {
      "name": "Copacabana",
      "country": "Bolivia",
      "cc": "BO",
      "lat": -16.1667,
      "lon": -69.0833,
      "arrive": "2026-04-24",
      "depart": "2026-04-26"
    },
    {
      "name": "La Paz",
      "country": "Bolivia",
      "cc": "BO",
      "lat": -16.5,
      "lon": -68.15,
      "arrive": "2026-04-26",
      "depart": "2026-05-04"
    },
    {
      "name": "Sucre",
      "country": "Bolivia",
      "cc": "BO",
      "lat": -19.0333,
      "lon": -65.2627,
      "arrive": "2026-05-04",
      "depart": "2026-05-12",
      "note": "37th birthday May 5"
    },
    {
      "name": "Potosí",
      "country": "Bolivia",
      "cc": "BO",
      "lat": -19.5836,
      "lon": -65.7531,
      "arrive": "2026-05-12",
      "depart": "2026-05-14"
    },
    {
      "name": "Uyuni",
      "country": "Bolivia",
      "cc": "BO",
      "lat": -20.4597,
      "lon": -66.825,
      "arrive": "2026-05-14",
      "depart": "2026-05-15"
    },
    {
      "name": "Uyuni Salt Flats",
      "country": "Bolivia",
      "cc": "BO",
      "lat": -20.1338,
      "lon": -67.4891,
      "arrive": "2026-05-15",
      "depart": "2026-05-18",
      "note": "Tour; crossed land border to Chile"
    },
    {
      "name": "San Pedro de Atacama",
      "country": "Chile",
      "cc": "CL",
      "lat": -22.911,
      "lon": -68.2,
      "arrive": "2026-05-18",
      "depart": "2026-05-22",
      "note": "Fly to Santiago via Calama"
    },
    {
      "name": "Santiago",
      "country": "Chile",
      "cc": "CL",
      "lat": -33.4489,
      "lon": -70.6693,
      "arrive": "2026-05-22",
      "depart": "2026-05-31",
      "note": "Bus to Mendoza"
    },
    {
      "name": "Mendoza",
      "country": "Argentina",
      "cc": "AR",
      "lat": -32.8895,
      "lon": -68.8458,
      "arrive": "2026-05-31",
      "depart": "2026-06-06",
      "note": "Wine country"
    },
    {
      "name": "Buenos Aires",
      "country": "Argentina",
      "cc": "AR",
      "lat": -34.6037,
      "lon": -58.3816,
      "arrive": "2026-06-07",
      "depart": "2026-06-18",
      "note": "Overnight bus from Mendoza"
    },
    {
      "name": "Austin",
      "country": "USA",
      "cc": "US",
      "lat": 30.2672,
      "lon": -97.7431,
      "arrive": "2026-06-19",
      "depart": "2026-06-21",
      "note": "Arrived on Juneteenth"
    },
    {
      "name": "Houston",
      "country": "USA",
      "cc": "US",
      "lat": 29.7604,
      "lon": -95.3698,
      "arrive": "2026-06-21",
      "depart": "2026-06-27",
      "note": "Drove from Austin"
    },
    {
      "name": "New York City",
      "country": "USA",
      "cc": "US",
      "lat": 40.7128,
      "lon": -74.006,
      "arrive": "2026-06-27",
      "depart": "2026-07-22",
      "note": "Fly to Paris"
    },
    {
      "name": "Paris",
      "country": "France",
      "cc": "FR",
      "lat": 48.8566,
      "lon": 2.3522,
      "arrive": "2026-07-23",
      "depart": "2026-07-25",
      "note": "Landed today · bus or train to the Netherlands"
    },
    {
      "name": "Amsterdam",
      "country": "Netherlands",
      "cc": "NL",
      "lat": 52.3676,
      "lon": 4.9041,
      "arrive": "2026-07-25",
      "depart": "2026-08-01",
      "tentative": true
    },
    {
      "name": "Berlin",
      "country": "Germany",
      "cc": "DE",
      "lat": 52.52,
      "lon": 13.405,
      "arrive": "2026-08-01",
      "depart": "2026-08-10",
      "tentative": true
    },
    {
      "name": "Prague",
      "country": "Czechia",
      "cc": "CZ",
      "lat": 50.0755,
      "lon": 14.4378,
      "arrive": "2026-08-10",
      "depart": "2026-08-18",
      "tentative": true
    },
    {
      "name": "Vienna",
      "country": "Austria",
      "cc": "AT",
      "lat": 48.2082,
      "lon": 16.3738,
      "arrive": "2026-08-18",
      "depart": "2026-08-26",
      "tentative": true
    },
    {
      "name": "Budapest",
      "country": "Hungary",
      "cc": "HU",
      "lat": 47.4979,
      "lon": 19.0402,
      "arrive": "2026-08-26",
      "depart": "2026-09-05",
      "tentative": true
    },
    {
      "name": "Ljubljana",
      "country": "Slovenia",
      "cc": "SI",
      "lat": 46.0569,
      "lon": 14.5058,
      "arrive": "2026-09-05",
      "depart": "2026-09-12",
      "tentative": true
    },
    {
      "name": "Split",
      "country": "Croatia",
      "cc": "HR",
      "lat": 43.5081,
      "lon": 16.4402,
      "arrive": "2026-09-12",
      "depart": "2026-09-25",
      "tentative": true
    },
    {
      "name": "Rome",
      "country": "Italy",
      "cc": "IT",
      "lat": 41.9028,
      "lon": 12.4964,
      "arrive": "2026-09-25",
      "depart": "2026-10-05",
      "tentative": true
    },
    {
      "name": "Barcelona",
      "country": "Spain",
      "cc": "ES",
      "lat": 41.3874,
      "lon": 2.1686,
      "arrive": "2026-10-05",
      "depart": "2026-10-15",
      "tentative": true
    },
    {
      "name": "Lisbon",
      "country": "Portugal",
      "cc": "PT",
      "lat": 38.7223,
      "lon": -9.1393,
      "arrive": "2026-10-15",
      "depart": "2026-10-28",
      "tentative": true
    }
  ]
}